[
  {
    "id": 1,
    "name": "CENGİZTOPEL ECZANESİ",
    "phone": "+904223213305",
    "address": "İSTİKLAL MAH. Cengiz Topel Cad. ÜÇGEN PARK KARŞISI MEYDAN APT. ALTI No:12/A, 44200 Battalgazi/Malatya, Türkiye",
    "addressDetails": "",
    "cityId": 44,
    "districtId": 608,
    "latitude": 38.38724298287497,
    "longitude": 38.32032953088737,
    "typeId": 2,
    "subTypeId": 4
  },
  {
    "id": 2,
    "name": "TOPSÖĞÜT ECZANESİ",
    "phone": "+904223992424",
    "address": "Topsöğüt, 44310 Yeşilyurt/Malatya, Türkiye",
    "addressDetails": "",
    "cityId": 44,
    "districtId": 599,
    "latitude": 38.36785171698257,
    "longitude": 38.25190994217248,
    "typeId": 2,
    "subTypeId": 4
  },
  {
    "id": 3,
    "name": "Kurtuluş eczanesi",
    "phone": "+904122291537",
    "address": "",
    "addressDetails": "",
    "cityId": 21,
    "districtId": 261,
    "latitude": 37.91674046667675,
    "longitude": 40.2339694862618,
    "typeId": 2,
    "subTypeId": 4
  },
  {
    "id": 4,
    "name": "Ozkan Pharmacy",
    "phone": "+904143512434",
    "address": "Akabe, 63250 Eyyübiye/Şanlıurfa, Türkiye",
    "addressDetails": "",
    "cityId": 63,
    "districtId": 835,
    "latitude": 37.155734,
    "longitude": 38.776311,
    "typeId": 2,
    "subTypeId": 4
  },
  {
    "id": 5,
    "name": "Aykut Pharmacy",
    "phone": "",
    "address": "Kürtül, Serin Sk. 4, 31900 Dörtyol/Hatay, Türkiye",
    "addressDetails": "",
    "cityId": 31,
    "districtId": 377,
    "latitude": 36.7560667,
    "longitude": 36.2219304,
    "typeId": 2,
    "subTypeId": 4
  },
  {
    "id": 6,
    "name": "Üniversite Eczanesi",
    "phone": "+905525331195",
    "address": "Gülveren Mh Merkez, Şanlıurfa Mardin Yolu Pk:63000, Haliliye, Şanlıurfa Türkiye",
    "addressDetails": "",
    "cityId": 63,
    "districtId": 833,
    "latitude": 37.1593781,
    "longitude": 38.9953658,
    "typeId": 2,
    "subTypeId": 4
  },
  {
    "id": 7,
    "name": "Eczane Aytül",
    "phone": "",
    "address": "Belediye Evleri, 84206. Sk. 20, 01170 Çukurova/Adana, Türkiye",
    "addressDetails": "",
    "cityId": 1,
    "districtId": 13,
    "latitude": 37.041579,
    "longitude": 35.2599914,
    "typeId": 2,
    "subTypeId": 4
  },
  {
    "id": 8,
    "name": "Faruk Eczanesi",
    "phone": "",
    "address": "Yavuz Selim, Süleymaniye Cd. no:156B, 63050 Haliliye/Şanlıurfa, Türkiye",
    "addressDetails": "",
    "cityId": 63,
    "districtId": 833,
    "latitude": 37.16464462729547,
    "longitude": 38.77184331146011,
    "typeId": 2,
    "subTypeId": 4
  },
  {
    "id": 9,
    "name": "Maya Eczanesi",
    "phone": "",
    "address": "Batıkent, 9088. Cd., 27560 Şehitkamil/Gaziantep, Türkiye",
    "addressDetails": "",
    "cityId": 27,
    "districtId": 339,
    "latitude": 37.07074785192563,
    "longitude": 37.322979024950754,
    "typeId": 2,
    "subTypeId": 4
  },
  {
    "id": 10,
    "name": "Defne Çınar Eczanesi",
    "phone": "+903222902994",
    "address": "Pınar, 74059. Sk. 2, 01160 Seyhan/Adana, Türkiye",
    "addressDetails": "",
    "cityId": 1,
    "districtId": 4,
    "latitude": 37.0234948,
    "longitude": 35.2861449,
    "typeId": 2,
    "subTypeId": 4
  },
  {
    "id": 11,
    "name": "Sezer Eczanesi",
    "phone": "+904223610058",
    "address": "Taştepe, 1. Cd. 64-74, 44060 Battalgazi/Malatya, Türkiye",
    "addressDetails": "",
    "cityId": 44,
    "districtId": 608,
    "latitude": 38.3672046,
    "longitude": 38.3199635,
    "typeId": 2,
    "subTypeId": 4
  },
  {
    "id": 12,
    "name": "Yeşiltepe Eczanesi",
    "phone": "+904223368214",
    "address": "Malatya, Cumhuriyet, 44080 Yeşilyurt/Malatya, Türkiye",
    "addressDetails": "",
    "cityId": 44,
    "districtId": 599,
    "latitude": 38.3571496,
    "longitude": 38.2750706,
    "typeId": 2,
    "subTypeId": 4
  },
  {
    "id": 13,
    "name": "Zambak Eczanesi",
    "phone": "+904223615854",
    "address": "Hidayet, Seyyid, Battalgazi Cd. No:71/A, Battalgazi/Malatya, Türkiye",
    "addressDetails": "",
    "cityId": 44,
    "districtId": 608,
    "latitude": 38.3672243,
    "longitude": 38.3198766,
    "typeId": 2,
    "subTypeId": 4
  },
  {
    "id": 14,
    "name": "Hayal Eczanesi",
    "phone": "+905385027706",
    "address": "Toros Mah Hayal Park 78114. Sokak No:1 Hayalpark, D:sitesi A / Blok, 01170 Çukurova/Adana, Türkiye",
    "addressDetails": "",
    "cityId": 1,
    "districtId": 13,
    "latitude": 37.0392348,
    "longitude": 35.2945356,
    "typeId": 2,
    "subTypeId": 4
  },
  {
    "id": 15,
    "name": "Kılıç Eczanesi",
    "phone": "",
    "address": "Hürriyet, 90. Sk. No:11, 02500 Gölbaşı/Adıyaman, Türkiye",
    "addressDetails": "",
    "cityId": 2,
    "districtId": 21,
    "latitude": 37.7826608,
    "longitude": 37.6402291,
    "typeId": 2,
    "subTypeId": 4
  },
  {
    "id": 16,
    "name": "Polat Eczanesi",
    "phone": "+903488132608",
    "address": "Yedi Aralık Mh. Cumhuriyet Cd. Pk:79000 Merkez/kilis, Türkiye",
    "addressDetails": "",
    "cityId": 27,
    "districtId": 342,
    "latitude": 36.7165325,
    "longitude": 37.114237,
    "typeId": 2,
    "subTypeId": 4
  },
  {
    "id": 17,
    "name": "Toprak Eczanesi",
    "phone": "+903224350606",
    "address": "Dumlupınar, Kıbrıs Cd. No:81 D:B, 01070 Seyhan/Adana, Türkiye",
    "addressDetails": "",
    "cityId": 1,
    "districtId": 4,
    "latitude": 36.9824164,
    "longitude": 35.3028924,
    "typeId": 2,
    "subTypeId": 4
  },
  {
    "id": 18,
    "name": "Zeynep Yılmaz Eczanesi",
    "phone": "+904225022812",
    "address": "Hoca Ahmet Yesevi, Yesiltepe, Bezirgan Sk. No:5/A, 44080 Yeşilyurt/Malatya, Türkiye",
    "addressDetails": "",
    "cityId": 44,
    "districtId": 599,
    "latitude": 38.3634029,
    "longitude": 38.2797652,
    "typeId": 2,
    "subTypeId": 4
  },
  {
    "id": 19,
    "name": "Akel Eczanesi",
    "phone": "",
    "address": "Fırat, Mustafa Kemal Cd. NO:130, 02400 Kâhta/Adıyaman, Türkiye",
    "addressDetails": "",
    "cityId": 2,
    "districtId": 20,
    "latitude": 37.7855717,
    "longitude": 38.622773,
    "typeId": 2,
    "subTypeId": 4
  },
  {
    "id": 20,
    "name": "Turan Eczanesi",
    "phone": "",
    "address": "Varlık, 1504. Sk. 8/A, 02240 Adıyaman Merkez/Adıyaman, Türkiye",
    "addressDetails": "",
    "cityId": 2,
    "districtId": 19,
    "latitude": 37.7530774,
    "longitude": 38.2791847,
    "typeId": 2,
    "subTypeId": 4
  },
  {
    "id": 21,
    "name": "ŞENEVLER ECZANESİ",
    "phone": "+905464228126",
    "address": "Hasan Çelebi, Hasançelebi 19. Sk. No:41, 63600 Siverek/Şanlıurfa, Türkiye",
    "addressDetails": "",
    "cityId": 63,
    "districtId": 829,
    "latitude": 37.7551566,
    "longitude": 39.324859,
    "typeId": 2,
    "subTypeId": 4
  },
  {
    "id": 22,
    "name": "DURU ECZANESİ",
    "phone": "+903262316930",
    "address": "Harbiye Mh. Atatürk Blv. Pk:31000 Merkez/hatay, Türkiye",
    "addressDetails": "",
    "cityId": 31,
    "districtId": 384,
    "latitude": 36.8287435,
    "longitude": 36.2130695,
    "typeId": 2,
    "subTypeId": 4
  },
  {
    "id": 23,
    "name": "The idea Pharmacy",
    "phone": "+903224312800",
    "address": "Dağlıoğlu, 14018. Sk. 4a, 01040 Seyhan/Adana, Türkiye",
    "addressDetails": "",
    "cityId": 1,
    "districtId": 4,
    "latitude": 36.9750278,
    "longitude": 35.3111825,
    "typeId": 2,
    "subTypeId": 4
  },
  {
    "id": 24,
    "name": "Metropolitan Pharmacy",
    "phone": "+904143478506",
    "address": "Şenevler, Şanlıurfa Gap Bulvarı No:144, 63320 Karaköprü/Şanlıurfa, Türkiye",
    "addressDetails": "",
    "cityId": 63,
    "districtId": 830,
    "latitude": 37.219141,
    "longitude": 38.796519,
    "typeId": 2,
    "subTypeId": 4
  },
  {
    "id": 25,
    "name": "Cinkara Eczanesi",
    "phone": "+903445613397",
    "address": "Yeni mahalle, Hükümet Cd. no:87/B, 46400 Andırın/Kahramanmaraş, Türkiye",
    "addressDetails": "",
    "cityId": 46,
    "districtId": 638,
    "latitude": 37.5750333,
    "longitude": 36.3507465,
    "typeId": 2,
    "subTypeId": 4
  },
  {
    "id": 26,
    "name": "ECZANE OKTAY EKŞİ",
    "phone": "+903228913891",
    "address": "CUMHURİYET MAH CUMHURİYET MEYDANI NO 3, 01700 İmamoğlu/Adana, Türkiye",
    "addressDetails": "",
    "cityId": 1,
    "districtId": 11,
    "latitude": 37.2572447,
    "longitude": 35.661223,
    "typeId": 2,
    "subTypeId": 4
  },
  {
    "id": 27,
    "name": "Akyuz Eczanesi",
    "phone": "",
    "address": "Eskisaray, 702. Sk. 37-23, 02100 Adıyaman Merkez/Adıyaman, Türkiye",
    "addressDetails": "",
    "cityId": 44,
    "districtId": 611,
    "latitude": 37.7617724,
    "longitude": 38.2717676,
    "typeId": 2,
    "subTypeId": 4
  },
  {
    "id": 28,
    "name": "ALİ ECZANESİ",
    "phone": "",
    "address": "Huzurevleri, 12. Sk., 21070 Kayapınar/Diyarbakır, Türkiye",
    "addressDetails": "",
    "cityId": 21,
    "districtId": 267,
    "latitude": 37.9350425,
    "longitude": 40.198191,
    "typeId": 2,
    "subTypeId": 4
  },
  {
    "id": 29,
    "name": "Büyüköztürk Eczanesi",
    "phone": "+903287862123",
    "address": "Esenevler, Kayalar Sk. 8/A, 80010 Osmaniye Merkez/Osmaniye, Türkiye",
    "addressDetails": "",
    "cityId": 80,
    "districtId": 950,
    "latitude": 37.0762297,
    "longitude": 36.2460253,
    "typeId": 2,
    "subTypeId": 4
  },
  {
    "id": 30,
    "name": "Farah Hatipoğlu Eczanesi",
    "phone": "+903442160127",
    "address": "22. Gün Mh Winmar AVM Üstü, Genç Osman Cd. No:38/3, 46050 Kahramanmaraş, Türkiye",
    "addressDetails": "",
    "cityId": 46,
    "districtId": 631,
    "latitude": 37.5866802,
    "longitude": 36.8613179,
    "typeId": 2,
    "subTypeId": 4
  },
  {
    "id": 31,
    "name": "Tambay Pharmacy",
    "phone": "+903224583210",
    "address": "Cemalpaşa, 63007. Sk. No:28, 01120 Seyhan/Adana, Türkiye",
    "addressDetails": "",
    "cityId": 1,
    "districtId": 4,
    "latitude": 37.0014516,
    "longitude": 35.3272556,
    "typeId": 2,
    "subTypeId": 4
  },
  {
    "id": 32,
    "name": "Deniz Eczanesi",
    "phone": "+904223610144",
    "address": "İskender, İskender Sk. No:7, 44060 Merkez/Malatya, Türkiye",
    "addressDetails": "",
    "cityId": 44,
    "districtId": 608,
    "latitude": 38.363091,
    "longitude": 38.31165,
    "typeId": 2,
    "subTypeId": 4
  },
  {
    "id": 33,
    "name": "Niyazi Mısri Eczanesi",
    "phone": "+905076689099",
    "address": "Niyazi mah. Mis Sok. No:10A Niyazi Misri Sağlık Ocağı karşısı, Muhtarlık yanı, 44100 Battalgazi/Malatya, Türkiye",
    "addressDetails": "",
    "cityId": 44,
    "districtId": 608,
    "latitude": 38.3492274,
    "longitude": 38.3095415,
    "typeId": 2,
    "subTypeId": 4
  },
  {
    "id": 34,
    "name": "Evin eczanesi",
    "phone": "+905396339704",
    "address": "Yenişehir, yenihastabe caddesi no:10/H, 63700 Viranşehir/Şanlıurfa, Türkiye",
    "addressDetails": "",
    "cityId": 63,
    "districtId": 827,
    "latitude": 37.2101051,
    "longitude": 39.7695596,
    "typeId": 2,
    "subTypeId": 4
  },
  {
    "id": 35,
    "name": "Şanlıurfa Eczanesi",
    "phone": "+905528637063",
    "address": "Bamyasuyu, 146. Sk. 18-30, 63040 Haliliye/Şanlıurfa, Türkiye",
    "addressDetails": "",
    "cityId": 63,
    "districtId": 833,
    "latitude": 37.1604138,
    "longitude": 38.7954363,
    "typeId": 2,
    "subTypeId": 4
  },
  {
    "id": 36,
    "name": "Ayaz Korkmaz Eczanesi",
    "phone": "",
    "address": "Reşatbey, Atatürk Cad. No:74, 01120 Seyhan/Adana, Türkiye",
    "addressDetails": "",
    "cityId": 1,
    "districtId": 4,
    "latitude": 37.001651,
    "longitude": 35.3234551,
    "typeId": 2,
    "subTypeId": 4
  },
  {
    "id": 37,
    "name": "Eda Eczanesi",
    "phone": "+903288150290",
    "address": "Raufbey, Atatürk Cd. no:284/A, 80010 Osmaniye Merkez/Osmaniye, Türkiye",
    "addressDetails": "",
    "cityId": 80,
    "districtId": 950,
    "latitude": 37.0686003,
    "longitude": 36.2430217,
    "typeId": 2,
    "subTypeId": 4
  },
  {
    "id": 38,
    "name": "Nurten Eczanesi",
    "phone": "(0328) 633 31 96",
    "address": "Fatih Sultan Mehmet, Atatürk Cd. Pk:80950, 80990 Toprakkale/Osmaniye, Türkiye",
    "addressDetails": "",
    "cityId": 80,
    "districtId": 948,
    "latitude": 37.0708205,
    "longitude": 36.1384645,
    "typeId": 2,
    "subTypeId": 4
  },
  {
    "id": 39,
    "name": "Yenipınar Eczanesi",
    "phone": "+903224325252",
    "address": "İsmetpaşa, 51010. Sk. No:31/B, 01180 Seyhan/Adana, Türkiye",
    "addressDetails": "",
    "cityId": 1,
    "districtId": 4,
    "latitude": 37.0066189,
    "longitude": 35.2908678,
    "typeId": 2,
    "subTypeId": 4
  },
  {
    "id": 40,
    "name": "KARADAĞ ECZANESİ",
    "phone": "+903425712100",
    "address": "Oğuzlar, DEVLET HASTANESİ KARŞISI, Karpuzatan Cd. NO: 11/A, 27900 Oğuzeli/Gaziantep, Türkiye",
    "addressDetails": "",
    "cityId": 27,
    "districtId": 341,
    "latitude": 36.9625576,
    "longitude": 37.5083432,
    "typeId": 2,
    "subTypeId": 4
  },
  {
    "id": 41,
    "name": "Şeyda Eczanesi",
    "phone": "+903225023052",
    "address": "M. Akif Ersoy Mahallesi, Sarıçam Belediyesi/Kaymakamlık Arkası, 198. Sk No:17/F, 01250 Sarıçam/Adana, Türkiye",
    "addressDetails": "",
    "cityId": 1,
    "districtId": 5,
    "latitude": 37.0179848,
    "longitude": 35.4022519,
    "typeId": 2,
    "subTypeId": 4
  },
  {
    "id": 42,
    "name": "Yusuf Eczanesi",
    "phone": "",
    "address": "Karamustafalı, 31960 Erzin/Hatay, Türkiye",
    "addressDetails": "",
    "cityId": 31,
    "districtId": 382,
    "latitude": 36.9555798,
    "longitude": 36.1990874,
    "typeId": 2,
    "subTypeId": 4
  },
  {
    "id": 43,
    "name": "Duygu Pharmacy",
    "phone": "+904223711268",
    "address": "Çöşnük, Atabey sokağı no 8 D:2a, 44320 Battalgazi/Malatya, Türkiye",
    "addressDetails": "",
    "cityId": 44,
    "districtId": 608,
    "latitude": 38.3464026,
    "longitude": 38.3457005,
    "typeId": 2,
    "subTypeId": 4
  },
  {
    "id": 44,
    "name": "Karakaya Eczanesi",
    "phone": "+904227514140",
    "address": "Doğuş, Özgürlük Cd. NO:19, 44350 Yazıhan/Malatya, Türkiye",
    "addressDetails": "",
    "cityId": 44,
    "districtId": 600,
    "latitude": 38.5938781,
    "longitude": 38.1799204,
    "typeId": 2,
    "subTypeId": 4
  },
  {
    "id": 45,
    "name": "Demirbüker Eczanesi",
    "phone": "",
    "address": "M. Fevzi Çakmak, Hoca Ahmet Yesevi Cd. No:32, 80020 Osmaniye Merkez/Osmaniye, Türkiye",
    "addressDetails": "",
    "cityId": 80,
    "districtId": 950,
    "latitude": 37.0826471,
    "longitude": 36.2584831,
    "typeId": 2,
    "subTypeId": 4
  },
  {
    "id": 46,
    "name": "Gunes Pharmacy",
    "phone": "+904142474851",
    "address": "Eyyüp Nebi, MAHHALLESİ, 3554. Sk. NO:15/C, 63200 Şanlıurfa Merkez/Şanlıurfa, Türkiye",
    "addressDetails": "",
    "cityId": 63,
    "districtId": 835,
    "latitude": 37.126364,
    "longitude": 38.8015772,
    "typeId": 2,
    "subTypeId": 4
  },
  {
    "id": 47,
    "name": "YENİ ÇAMLICA ECZANESİ",
    "phone": "+903223292000",
    "address": "Karacaoğlan, 3734. Sk. No: 12 D:z01, 01240 Yüreğir/Adana, Türkiye",
    "addressDetails": "",
    "cityId": 1,
    "districtId": 1,
    "latitude": 37.0136754,
    "longitude": 35.3634801,
    "typeId": 2,
    "subTypeId": 4
  },
  {
    "id": 48,
    "name": "Mehmet Can Eczanesi",
    "phone": "+903424378161",
    "address": "Güneykent, 102234. Cd., 27470 Şahinbey/Gaziantep, Türkiye",
    "addressDetails": "",
    "cityId": 27,
    "districtId": 340,
    "latitude": 37.0257363,
    "longitude": 37.3303107,
    "typeId": 2,
    "subTypeId": 4
  },
  {
    "id": 49,
    "name": "Eylul Pharmacy",
    "phone": "+904222381724",
    "address": "Yakınca, Belediye İş Merkezi, D:No:63, 44090 Yeşilyurt/Malatya, Türkiye",
    "addressDetails": "",
    "cityId": 44,
    "districtId": 599,
    "latitude": 38.3309041,
    "longitude": 38.2159111,
    "typeId": 2,
    "subTypeId": 4
  },
  {
    "id": 50,
    "name": "Bulamlar Eczanesi",
    "phone": "+904163181455",
    "address": "Yukarı Sarhan Mh. Atatürk Cd. Pk:02300 Besni/adıyaman, Türkiye",
    "addressDetails": "",
    "cityId": 2,
    "districtId": 24,
    "latitude": 37.6973672,
    "longitude": 37.8593906,
    "typeId": 2,
    "subTypeId": 4
  },
  {
    "id": 51,
    "name": "Hacettepe Pharmacy",
    "phone": "",
    "address": "Samanlı, Hasan Bey Cd. No:289, 44090 Yeşilyurt/Malatya, Türkiye",
    "addressDetails": "",
    "cityId": 44,
    "districtId": 599,
    "latitude": 38.3302489,
    "longitude": 38.2887453,
    "typeId": 2,
    "subTypeId": 4
  },
  {
    "id": 52,
    "name": "Esranın eczanesi",
    "phone": "+904125028015",
    "address": "Fırat, 21070 Kayapınar/Diyarbakır, Türkiye",
    "addressDetails": "KADIN DOĞUM HASTANESİ KARŞISI 75 GO PETROL YANI ÇELEBİ ESER CAMİ KARŞISI",
    "cityId": 21,
    "districtId": 267,
    "latitude": 37.9274196,
    "longitude": 40.1554766,
    "typeId": 2,
    "subTypeId": 4
  },
  {
    "id": 53,
    "name": "DENİZ ECZANESİ",
    "phone": "+905059487105",
    "address": "Gazel Mahallesi, Ceylanlı 6 sokak no: 8/B, 63500 Akçakale/Şanlıurfa, Türkiye",
    "addressDetails": "",
    "cityId": 63,
    "districtId": 839,
    "latitude": 36.740666,
    "longitude": 38.94593,
    "typeId": 2,
    "subTypeId": 4
  },
  {
    "id": 54,
    "name": "Tepe Eczanesi",
    "phone": "+904122356797",
    "address": "Mevlana Halit Mahallesi Öğretmenler, Caddesi 439. sokak 3/B, 21090, Bağlar, Diyarbakır, Türkiye",
    "addressDetails": "",
    "cityId": 21,
    "districtId": 277,
    "latitude": 37.925508,
    "longitude": 40.206722,
    "typeId": 2,
    "subTypeId": 4
  },
  {
    "id": 55,
    "name": "Derya Eczanesi",
    "phone": "+905315908286",
    "address": "Sakarya, 288/8. Sk., 31300 İskenderun/Hatay, Türkiye",
    "addressDetails": "",
    "cityId": 31,
    "districtId": 380,
    "latitude": 36.5721387,
    "longitude": 36.1955867,
    "typeId": 2,
    "subTypeId": 4
  },
  {
    "id": 56,
    "name": "Gamze Eczanesi",
    "phone": "+905421475663",
    "address": "Şenevler, 6106. Sk. 38BB, 63330 Karaköprü/Şanlıurfa, Türkiye",
    "addressDetails": "",
    "cityId": 63,
    "districtId": 830,
    "latitude": 37.2179835,
    "longitude": 38.7976571,
    "typeId": 2,
    "subTypeId": 4
  },
  {
    "id": 57,
    "name": "Ateş Eczanesi",
    "phone": "+903288145353",
    "address": "Esenevler, 15564. Sk. No:8, 80000 Osmaniye Merkez/Osmaniye, Türkiye",
    "addressDetails": "",
    "cityId": 80,
    "districtId": 950,
    "latitude": 37.0739675,
    "longitude": 36.2405396,
    "typeId": 2,
    "subTypeId": 4
  },
  {
    "id": 58,
    "name": "Vitamin Eczanesi",
    "phone": "+904223613518",
    "address": "İskender, Şimşek Sk No:15/A, 44060 Malatya Battalgazi/Malatya, Türkiye",
    "addressDetails": "",
    "cityId": 44,
    "districtId": 608,
    "latitude": 38.3626253,
    "longitude": 38.3124047,
    "typeId": 2,
    "subTypeId": 4
  },
  {
    "id": 59,
    "name": "Zuhal Pharmacy",
    "phone": "+904222114781",
    "address": "Çukurdere, Zapcıoğlu Cd. No:14, 44040 Yeşilyurt/Malatya, Türkiye",
    "addressDetails": "",
    "cityId": 44,
    "districtId": 599,
    "latitude": 38.3463394,
    "longitude": 38.3016551,
    "typeId": 2,
    "subTypeId": 4
  },
  {
    "id": 60,
    "name": "Janya Eczanesi",
    "phone": "+904122264800",
    "address": "Şehitlik, 47. Sk., 21010 Yenişehir/Diyarbakır, Türkiye",
    "addressDetails": "",
    "cityId": 21,
    "districtId": 261,
    "latitude": 37.9083705,
    "longitude": 40.2229944,
    "typeId": 2,
    "subTypeId": 4
  },
  {
    "id": 61,
    "name": "Yıldırım Eczanesi",
    "phone": "+903287188882",
    "address": "Şehit Vedat Kocadallı, 2 Nolu Sağlık Ocağı Civarı, 1284. Sk. 5/C, 80750 Kadirli/Osmaniye, Türkiye",
    "addressDetails": "",
    "cityId": 80,
    "districtId": 951,
    "latitude": 37.3665818,
    "longitude": 36.0959992,
    "typeId": 2,
    "subTypeId": 4
  },
  {
    "id": 62,
    "name": "MEHMET DOĞRU ECZANESİ",
    "phone": "+903426113178",
    "address": "Yeşilova, Dr. Asım Güzelbey Cd. :27/A, 27650 Araban/Gaziantep, Türkiye",
    "addressDetails": "",
    "cityId": 27,
    "districtId": 346,
    "latitude": 37.4274064,
    "longitude": 37.6874712,
    "typeId": 2,
    "subTypeId": 4
  },
  {
    "id": 63,
    "name": "Beyza Eczanesi",
    "phone": "",
    "address": "Mahfesığmaz, Turgut Özal Blv. No:2/C, 01170 Çukurova/Adana, Türkiye",
    "addressDetails": "",
    "cityId": 1,
    "districtId": 13,
    "latitude": 37.0441932,
    "longitude": 35.308563,
    "typeId": 2,
    "subTypeId": 4
  },
  {
    "id": 64,
    "name": "Ekin Eczanesi",
    "phone": "+903223410085",
    "address": "Gültepe, Fevzi Çakmak Cd No:1, 01250 Sarıçam/Adana, Türkiye",
    "addressDetails": "",
    "cityId": 1,
    "districtId": 5,
    "latitude": 37.0341333,
    "longitude": 35.4027664,
    "typeId": 2,
    "subTypeId": 4
  },
  {
    "id": 65,
    "name": "Yeniurfa Pharmacy",
    "phone": "+904144412164",
    "address": "Özel İdare Dükkanları No:4, Harran Merkez, Harran, Şanlıurfa, Türkiye",
    "addressDetails": "",
    "cityId": 63,
    "districtId": 832,
    "latitude": 36.8631689,
    "longitude": 39.024276,
    "typeId": 2,
    "subTypeId": 4
  },
  {
    "id": 66,
    "name": "Çalışır Eczanesi",
    "phone": "+905345956373",
    "address": "Yavuzlar, Kışla Cd. No:194, 01220 Yüreğir/Adana, Türkiye",
    "addressDetails": "",
    "cityId": 1,
    "districtId": 1,
    "latitude": 37.0004674,
    "longitude": 35.3429562,
    "typeId": 2,
    "subTypeId": 4
  },
  {
    "id": 67,
    "name": "Hazal Eczanesi",
    "phone": "",
    "address": "Yeni Sanayi, 2819. Sk. No:22, 02040 Adıyaman Merkez/Adıyaman, Türkiye",
    "addressDetails": "",
    "cityId": 2,
    "districtId": 19,
    "latitude": 37.752489,
    "longitude": 38.2437869,
    "typeId": 2,
    "subTypeId": 4
  },
  {
    "id": 68,
    "name": "Metin Eczanesi",
    "phone": "+904122573939",
    "address": "Diclekent Bulvarı Balkaş apartmanı altı no:110, 21070 Kayapınar/Diyarbakır, Türkiye",
    "addressDetails": "",
    "cityId": 58,
    "districtId": 768,
    "latitude": 37.949601,
    "longitude": 40.1768139,
    "typeId": 2,
    "subTypeId": 4
  },
  {
    "id": 69,
    "name": "MELİKE ECZANESİ",
    "phone": "+905539112695",
    "address": "Cumhuriyet, Banı Cd. No:174, 80600 Düziçi/Osmaniye, Türkiye",
    "addressDetails": "",
    "cityId": 80,
    "districtId": 953,
    "latitude": 37.240348,
    "longitude": 36.4455664,
    "typeId": 2,
    "subTypeId": 4
  },
  {
    "id": 70,
    "name": "Göztepe Eczanesi",
    "phone": "",
    "address": "",
    "addressDetails": "",
    "cityId": 44,
    "districtId": 608,
    "latitude": 38.357425,
    "longitude": 38.337978,
    "typeId": 2,
    "subTypeId": 4
  },
  {
    "id": 71,
    "name": "Arsuz Eczanesi",
    "phone": "+904223118004",
    "address": "Göztepe, Fevzi Çakmak Cd. No:25 D:B, 44050 Battalgazi/Malatya, Türkiye",
    "addressDetails": "",
    "cityId": 44,
    "districtId": 608,
    "latitude": 36.4110733,
    "longitude": 35.8903233,
    "typeId": 2,
    "subTypeId": 4
  },
  {
    "id": 72,
    "name": "Barlas Eczanesi",
    "phone": "+904142471880",
    "address": "Eyüpkent Mahallesi, eyyübiye, 800 YATAKLI DEVLET HASTANESİ YUKARISI, 3966. Sk. No:62, 63200, Türkiye",
    "addressDetails": "3966.sok no:62/a Nihat demirelli 8 nolu asm karşısı, zahireciler buğday pazarı arkası",
    "cityId": 58,
    "districtId": 772,
    "latitude": 37.1119539,
    "longitude": 38.8146748,
    "typeId": 2,
    "subTypeId": 4
  },
  {
    "id": 73,
    "name": "Korkmaz Eczanesi",
    "phone": "+904146525212",
    "address": "Meydan, Huzur Sk. No:27, 63400 Birecik/Şanlıurfa, Türkiye",
    "addressDetails": "",
    "cityId": 63,
    "districtId": 838,
    "latitude": 37.0192689,
    "longitude": 37.9788475,
    "typeId": 2,
    "subTypeId": 4
  },
  {
    "id": 74,
    "name": "Soytoprak Pharmacy",
    "phone": "+903224286565",
    "address": "Şakirpaşa Şakirpaşa Caddesi No:206 D:A, 01080 Seyhan/Adana, Türkiye",
    "addressDetails": "",
    "cityId": 1,
    "districtId": 4,
    "latitude": 36.9877874,
    "longitude": 35.2748801,
    "typeId": 2,
    "subTypeId": 4
  },
  {
    "id": 75,
    "name": "Mengu Pharmacy",
    "phone": "+903224297505",
    "address": "Sucuzade, Saydam Cd. No:130 D:A, 01030 Seyhan/Adana, Türkiye",
    "addressDetails": "",
    "cityId": 1,
    "districtId": 4,
    "latitude": 36.9795242,
    "longitude": 35.3240391,
    "typeId": 2,
    "subTypeId": 4
  },
  {
    "id": 76,
    "name": "Konuk Eczanesi",
    "phone": "",
    "address": "Aslanlı, Devlet Bahçeli Blv. 15/b, 80500 Bahçe/Osmaniye, Türkiye",
    "addressDetails": "",
    "cityId": 80,
    "districtId": 954,
    "latitude": 37.2006025,
    "longitude": 36.5773838,
    "typeId": 2,
    "subTypeId": 4
  },
  {
    "id": 77,
    "name": "Acar Plus Eczanesi",
    "phone": "+903222240258",
    "address": "Yeşilyurt, Tugay Apt, Mavi Bulvar, 70595 Sk D:No:26, 01250 Seyhan/Adana, Türkiye",
    "addressDetails": "",
    "cityId": 1,
    "districtId": 4,
    "latitude": 37.0294836,
    "longitude": 35.3060463,
    "typeId": 2,
    "subTypeId": 4
  },
  {
    "id": 78,
    "name": "DİYAR ECZANESİ",
    "phone": "+905377440707",
    "address": "Yenişehir, YENİ HASTANE CADDESİ NO:10/Z1, 63700 Viranşehir/Şanlıurfa, Türkiye",
    "addressDetails": "",
    "cityId": 63,
    "districtId": 827,
    "latitude": 37.2104673,
    "longitude": 39.7694325,
    "typeId": 2,
    "subTypeId": 4
  },
  {
    "id": 79,
    "name": "Ünal Eczanesi",
    "phone": "",
    "address": "Numune Evler, 31900 Dörtyol/Hatay, Türkiye",
    "addressDetails": "",
    "cityId": 31,
    "districtId": 383,
    "latitude": 36.828311,
    "longitude": 36.211676,
    "typeId": 2,
    "subTypeId": 4
  },
  {
    "id": 80,
    "name": "Dogu Pharmacy",
    "phone": "+903223225340",
    "address": "19 Mayıs, 01300 Yüreğir/Adana, Türkiye",
    "addressDetails": "",
    "cityId": 1,
    "districtId": 1,
    "latitude": 36.9782043,
    "longitude": 35.3653496,
    "typeId": 2,
    "subTypeId": 4
  },
  {
    "id": 81,
    "name": "Öztürk Eczanesi",
    "phone": "+904222123232",
    "address": "Özalper, 2. Caddesi 28. Sokak 1. Arası No:14, 44090 Yeşilyurt/Malatya, Türkiye",
    "addressDetails": "",
    "cityId": 44,
    "districtId": 599,
    "latitude": 38.3360641,
    "longitude": 38.2847906,
    "typeId": 2,
    "subTypeId": 4
  },
  {
    "id": 82,
    "name": "Gökdere Eczanesi",
    "phone": "+905326216821",
    "address": "Alipınar, Alipınar Cd. İkizler 9 No:1A D:Apt. Altı, 21090 Bağlar/Diyarbakır, Türkiye",
    "addressDetails": "",
    "cityId": 21,
    "districtId": 277,
    "latitude": 37.9071116,
    "longitude": 40.2124092,
    "typeId": 2,
    "subTypeId": 4
  },
  {
    "id": 83,
    "name": "Batikent Eczanesi",
    "phone": "",
    "address": "Ertuğrul Gazi, 357. Sk. 60 50, 63300 Haliliye/Şanlıurfa, Türkiye",
    "addressDetails": "",
    "cityId": 63,
    "districtId": 833,
    "latitude": 37.173423,
    "longitude": 38.8147562,
    "typeId": 2,
    "subTypeId": 4
  },
  {
    "id": 84,
    "name": "MEHMET AKİF ECZANESİ",
    "phone": "+905051036360",
    "address": "Adnan Menderes, 19538. Sk. NO:6/B, 80000 Osmaniye Merkez/Osmaniye, Türkiye",
    "addressDetails": "",
    "cityId": 80,
    "districtId": 950,
    "latitude": 37.0635712,
    "longitude": 36.2360612,
    "typeId": 2,
    "subTypeId": 4
  },
  {
    "id": 85,
    "name": "Botanik Eczanesi",
    "phone": "+904223710010",
    "address": "Fırat, Venüs Sk 36 A, 44320 Battalgazi/Malatya, Türkiye",
    "addressDetails": "",
    "cityId": 44,
    "districtId": 608,
    "latitude": 38.3419448,
    "longitude": 38.3328239,
    "typeId": 2,
    "subTypeId": 4
  },
  {
    "id": 86,
    "name": "Topgül Eczanesi",
    "phone": "+905431220444",
    "address": "Akpınar, Çevre Yolu Cd. No:123, 44070 Battalgazi/Malatya, Türkiye",
    "addressDetails": "",
    "cityId": 44,
    "districtId": 608,
    "latitude": 38.3531298,
    "longitude": 38.3210436,
    "typeId": 2,
    "subTypeId": 4
  },
  {
    "id": 87,
    "name": "Sıhhat Eczanesi",
    "phone": "+904223222759",
    "address": "Hamidiye, Emeksiz Cad., 44210 Pk:44200 Battalgazi/Malatya, Türkiye",
    "addressDetails": "",
    "cityId": 44,
    "districtId": 608,
    "latitude": 38.3478832,
    "longitude": 38.3147762,
    "typeId": 2,
    "subTypeId": 4
  },
  {
    "id": 88,
    "name": "Mert Eczanesi",
    "phone": "",
    "address": "",
    "addressDetails": "",
    "cityId": 44,
    "districtId": 608,
    "latitude": 38.3570865,
    "longitude": 38.2746418,
    "typeId": 2,
    "subTypeId": 4
  },
  {
    "id": 89,
    "name": "Damla Eczanesi",
    "phone": "+905342448309",
    "address": "Yeşiltepe, Atatürk Mahallesi Şehit Engin Akın Sokak, Tektut Cami Karşısı No:5/A, 44900 Yeşilyurt/Malatya, Türkiye",
    "addressDetails": "Yeşilyurt",
    "cityId": 44,
    "districtId": 599,
    "latitude": 37.3736852,
    "longitude": 36.0984058,
    "typeId": 2,
    "subTypeId": 4
  },
  {
    "id": 90,
    "name": "MESUT ECZANESİ",
    "phone": "+905380747904",
    "address": "Boyno, Şht. Pide Cd. no:61/b, 27500 Şehitkamil/Gaziantep, Türkiye",
    "addressDetails": "",
    "cityId": 27,
    "districtId": 339,
    "latitude": 37.0834913,
    "longitude": 37.3727114,
    "typeId": 2,
    "subTypeId": 4
  },
  {
    "id": 91,
    "name": "Duygu Eczanesi",
    "phone": "+904145033503",
    "address": "Seyrantepe Mh, 63002 Karaköprü/Şanlıurfa, Türkiye",
    "addressDetails": "FuarMerkezi Yukarısı,naturel Park,Yükseliş Koleji Civarı,Asm Karşısı, Bim Altı",
    "cityId": 58,
    "districtId": 772,
    "latitude": 37.2186236,
    "longitude": 38.7755897,
    "typeId": 2,
    "subTypeId": 4
  },
  {
    "id": 92,
    "name": "Ekinözü Eczanesi",
    "phone": "+903444812390",
    "address": "İçmeler Mh. İbni Sina Cd. Pk:46360 Ekinözü/Kahramanmaraş, 46360, Türkiye",
    "addressDetails": "",
    "cityId": 46,
    "districtId": 635,
    "latitude": 38.056113,
    "longitude": 37.187238,
    "typeId": 2,
    "subTypeId": 4
  },
  {
    "id": 93,
    "name": "UFUK ECZANESİ",
    "phone": "+904147511522",
    "address": "İnönü caddesi no:9/16 İlçe Hastanesi Karşısı Ş Halfeti Müftülüğü, 63950 Halfeti/Şanlıurfa, Türkiye",
    "addressDetails": "",
    "cityId": 63,
    "districtId": 834,
    "latitude": 37.230131,
    "longitude": 37.946594,
    "typeId": 2,
    "subTypeId": 4
  },
  {
    "id": 94,
    "name": "Murat Pharmacy",
    "phone": "+903267131660",
    "address": "Sanayi, Arı Cd. NO:49/C, 31600 Dörtyol/Hatay, Türkiye",
    "addressDetails": "",
    "cityId": 31,
    "districtId": 383,
    "latitude": 36.842149,
    "longitude": 36.2239448,
    "typeId": 2,
    "subTypeId": 4
  },
  {
    "id": 95,
    "name": "Esma Eczanesi",
    "phone": "+904223218135",
    "address": "Göztepe, Fevzi Çakmak Cd. No:69/C, 44050 Battalgazi/Malatya, Türkiye",
    "addressDetails": "",
    "cityId": 44,
    "districtId": 608,
    "latitude": 38.3593267,
    "longitude": 38.3431545,
    "typeId": 2,
    "subTypeId": 4
  },
  {
    "id": 96,
    "name": "Seyma Pharmacy",
    "phone": "+903222220002",
    "address": "Sümer, 69126. Sk. 4/D D:E, 01140 Seyhan/Adana, Türkiye",
    "addressDetails": "",
    "cityId": 1,
    "districtId": 4,
    "latitude": 37.0151703,
    "longitude": 35.3213647,
    "typeId": 2,
    "subTypeId": 4
  },
  {
    "id": 97,
    "name": "Gençlik Eczanesi",
    "phone": "+905069746390",
    "address": "Kışla, 1. Cd. No:14, 01230 Yüreğir/Adana, Türkiye",
    "addressDetails": "",
    "cityId": 1,
    "districtId": 1,
    "latitude": 37.0201917,
    "longitude": 35.3387871,
    "typeId": 2,
    "subTypeId": 4
  },
  {
    "id": 98,
    "name": "Hasan eczanesi (EYYÜBİYE)",
    "phone": "+905307355363",
    "address": "Asya mahallesi, 5096.sokak, 63250 Eyyübiye/Şanlıurfa, Türkiye",
    "addressDetails": "",
    "cityId": 63,
    "districtId": 835,
    "latitude": 37.1051614,
    "longitude": 38.8108278,
    "typeId": 2,
    "subTypeId": 4
  },
  {
    "id": 99,
    "name": "Yıldırım Eczanesi",
    "phone": "+903287188882",
    "address": "Şehit Vedat Kocadallı, 1284. Sk. 5, 80750 Kadirli/Osmaniye, Türkiye",
    "addressDetails": "",
    "cityId": 80,
    "districtId": 951,
    "latitude": 37.3665818,
    "longitude": 36.0959992,
    "typeId": 2,
    "subTypeId": 4
  },
  {
    "id": 100,
    "name": "Mihrap Eczanesi",
    "phone": "",
    "address": "",
    "addressDetails": "İstiklal, Girne Cd. No:111, 01640 Tufanbeyli/Adana, Türkiye",
    "cityId": 1,
    "districtId": 3,
    "latitude": 38.2538028,
    "longitude": 36.2180013,
    "typeId": 2,
    "subTypeId": 4
  },
  {
    "id": 101,
    "name": "Fatih Eczanesi",
    "phone": "",
    "address": "Bahçelievler, 31960 Erzin/Hatay, Türkiye",
    "addressDetails": "",
    "cityId": 31,
    "districtId": 382,
    "latitude": 36.941907,
    "longitude": 36.213606,
    "typeId": 2,
    "subTypeId": 4
  },
  {
    "id": 102,
    "name": "MUHSİN ECZANESİ",
    "phone": "+905315509063",
    "address": "Şirinkuyu Mahallesi 15. Sk No8, 63600 Siverek/Şanlıurfa, Türkiye",
    "addressDetails": "10 Nolu Sağlık Ocağı Karşısı,",
    "cityId": 58,
    "districtId": 776,
    "latitude": 37.741944,
    "longitude": 39.3193362,
    "typeId": 2,
    "subTypeId": 4
  }
]